<?xml version="1.0" encoding="utf-8" standalone="yes"?>
<route>
    <sLang>k</sLang>
    <dayKind>SATURDAY</dayKind>
    <startStationCode>3201</startStationCode>
    <startStationName>검단오류</startStationName>
    <endStationCode>3227</endStationCode>
    <endStationName>운연</endStationName>
    <transferNum>0</transferNum>
    <totalTime>47</totalTime>
    <writeDate>20241109 23:45:24</writeDate>
    <price>1800</price>
    <price2>1900</price2>
    <div>12</div>
    <regular>67300</regular>
    <regularStep>3</regularStep>
    <distance>29.1</distance>
    <XStartStationnumber>I201</XStartStationnumber>
    <XEndStationnumber>I227</XEndStationnumber>
    <teensPrice>1120</teensPrice>
    <teensPrice2>1900</teensPrice2>
    <childPrice>700</childPrice>
    <childPrice2>750</childPrice2>
    <startLatitude>37.59492341722339</startLatitude>
    <startLongitude>126.62812047190583</startLongitude>
    <endLatitude>37.439715672476844</endLatitude>
    <endLongitude>126.75965165347806</endLongitude>
    <sPath>
        <pathList>
            <endLatitude>37.595130094116115</endLatitude>
            <endLongitude>126.64252266032417</endLongitude>
            <endStationCode>3202</endStationCode>
            <endStationName>왕길</endStationName>
            <endTime>null</endTime>
            <line>in2</line>
            <pathType>spath</pathType>
            <runTime>02:02</runTime>
            <startLatitude>37.59492341722339</startLatitude>
            <startLongitude>126.62812047190583</startLongitude>
            <startStationCode>3201</startStationCode>
            <startStationName>검단오류</startStationName>
            <startTime>234818</startTime>
            <upDown>DOWN</upDown>
            <viewTime>2</viewTime>
            <XEndStationnumber>I202</XEndStationnumber>
            <XStartStationnumber>I201</XStartStationnumber>
        </pathList>
        <pathList>
            <endLatitude>37.60162296222178</endLatitude>
            <endLongitude>126.65660163824005</endLongitude>
            <endStationCode>3203</endStationCode>
            <endStationName>검단사거리</endStationName>
            <endTime>null</endTime>
            <line>in2</line>
            <pathType>spath</pathType>
            <runTime>02:37</runTime>
            <startLatitude>37.595130094116115</startLatitude>
            <startLongitude>126.64252266032417</startLongitude>
            <startStationCode>3202</startStationCode>
            <startStationName>왕길</startStationName>
            <startTime>null</startTime>
            <upDown>DOWN</upDown>
            <viewTime>5</viewTime>
            <XEndStationnumber>I203</XEndStationnumber>
            <XStartStationnumber>I202</XStartStationnumber>
        </pathList>
        <pathList>
            <endLatitude>37.597788300714555</endLatitude>
            <endLongitude>126.66727485930913</endLongitude>
            <endStationCode>3204</endStationCode>
            <endStationName>마전</endStationName>
            <endTime>null</endTime>
            <line>in2</line>
            <pathType>spath</pathType>
            <runTime>02:08</runTime>
            <startLatitude>37.60162296222178</startLatitude>
            <startLongitude>126.65660163824005</startLongitude>
            <startStationCode>3203</startStationCode>
            <startStationName>검단사거리</startStationName>
            <startTime>null</startTime>
            <upDown>DOWN</upDown>
            <viewTime>7</viewTime>
            <XEndStationnumber>I204</XEndStationnumber>
            <XStartStationnumber>I203</XStartStationnumber>
        </pathList>
        <pathList>
            <endLatitude>37.59299830840817</endLatitude>
            <endLongitude>126.6732803768959</endLongitude>
            <endStationCode>3205</endStationCode>
            <endStationName>완정</endStationName>
            <endTime>null</endTime>
            <line>in2</line>
            <pathType>spath</pathType>
            <runTime>01:47</runTime>
            <startLatitude>37.597788300714555</startLatitude>
            <startLongitude>126.66727485930913</startLongitude>
            <startStationCode>3204</startStationCode>
            <startStationName>마전</startStationName>
            <startTime>null</startTime>
            <upDown>DOWN</upDown>
            <viewTime>9</viewTime>
            <XEndStationnumber>I205</XEndStationnumber>
            <XStartStationnumber>I204</XStartStationnumber>
        </pathList>
        <pathList>
            <endLatitude>37.58519017201001</endLatitude>
            <endLongitude>126.67616193630015</endLongitude>
            <endStationCode>3206</endStationCode>
            <endStationName>독정</endStationName>
            <endTime>null</endTime>
            <line>in2</line>
            <pathType>spath</pathType>
            <runTime>01:37</runTime>
            <startLatitude>37.59299830840817</startLatitude>
            <startLongitude>126.6732803768959</startLongitude>
            <startStationCode>3205</startStationCode>
            <startStationName>완정</startStationName>
            <startTime>null</startTime>
            <upDown>DOWN</upDown>
            <viewTime>10</viewTime>
            <XEndStationnumber>I206</XEndStationnumber>
            <XStartStationnumber>I205</XStartStationnumber>
        </pathList>
        <pathList>
            <endLatitude>37.56889073108077</endLatitude>
            <endLongitude>126.6759721732178</endLongitude>
            <endStationCode>3207</endStationCode>
            <endStationName>검암</endStationName>
            <endTime>null</endTime>
            <line>in2</line>
            <pathType>spath</pathType>
            <runTime>02:31</runTime>
            <startLatitude>37.58519017201001</startLatitude>
            <startLongitude>126.67616193630015</startLongitude>
            <startStationCode>3206</startStationCode>
            <startStationName>독정</startStationName>
            <startTime>null</startTime>
            <upDown>DOWN</upDown>
            <viewTime>13</viewTime>
            <XEndStationnumber>I207</XEndStationnumber>
            <XStartStationnumber>I206</XStartStationnumber>
        </pathList>
        <pathList>
            <endLatitude>37.561372643718514</endLatitude>
            <endLongitude>126.67787223626818</endLongitude>
            <endStationCode>3208</endStationCode>
            <endStationName>검바위</endStationName>
            <endTime>null</endTime>
            <line>in2</line>
            <pathType>spath</pathType>
            <runTime>01:51</runTime>
            <startLatitude>37.56889073108077</startLatitude>
            <startLongitude>126.6759721732178</startLongitude>
            <startStationCode>3207</startStationCode>
            <startStationName>검암</startStationName>
            <startTime>null</startTime>
            <upDown>DOWN</upDown>
            <viewTime>15</viewTime>
            <XEndStationnumber>I208</XEndStationnumber>
            <XStartStationnumber>I207</XStartStationnumber>
        </pathList>
        <pathList>
            <endLatitude>37.55165843808463</endLatitude>
            <endLongitude>126.67732558093605</endLongitude>
            <endStationCode>3209</endStationCode>
            <endStationName>아시아드경기장</endStationName>
            <endTime>null</endTime>
            <line>in2</line>
            <pathType>spath</pathType>
            <runTime>02:24</runTime>
            <startLatitude>37.561372643718514</startLatitude>
            <startLongitude>126.67787223626818</startLongitude>
            <startStationCode>3208</startStationCode>
            <startStationName>검바위</startStationName>
            <startTime>null</startTime>
            <upDown>DOWN</upDown>
            <viewTime>17</viewTime>
            <XEndStationnumber>I209</XEndStationnumber>
            <XStartStationnumber>I208</XStartStationnumber>
        </pathList>
        <pathList>
            <endLatitude>37.544089023775435</endLatitude>
            <endLongitude>126.67693953217801</endLongitude>
            <endStationCode>3210</endStationCode>
            <endStationName>서구청</endStationName>
            <endTime>null</endTime>
            <line>in2</line>
            <pathType>spath</pathType>
            <runTime>01:37</runTime>
            <startLatitude>37.55165843808463</startLatitude>
            <startLongitude>126.67732558093605</startLongitude>
            <startStationCode>3209</startStationCode>
            <startStationName>아시아드경기장</startStationName>
            <startTime>null</startTime>
            <upDown>DOWN</upDown>
            <viewTime>19</viewTime>
            <XEndStationnumber>I210</XEndStationnumber>
            <XStartStationnumber>I209</XStartStationnumber>
        </pathList>
        <pathList>
            <endLatitude>37.52493544911693</endLatitude>
            <endLongitude>126.67588804865636</endLongitude>
            <endStationCode>3211</endStationCode>
            <endStationName>가정</endStationName>
            <endTime>null</endTime>
            <line>in2</line>
            <pathType>spath</pathType>
            <runTime>02:46</runTime>
            <startLatitude>37.544089023775435</startLatitude>
            <startLongitude>126.67693953217801</startLongitude>
            <startStationCode>3210</startStationCode>
            <startStationName>서구청</startStationName>
            <startTime>null</startTime>
            <upDown>DOWN</upDown>
            <viewTime>21</viewTime>
            <XEndStationnumber>I211</XEndStationnumber>
            <XStartStationnumber>I210</XStartStationnumber>
        </pathList>
        <pathList>
            <endLatitude>37.51769146310838</endLatitude>
            <endLongitude>126.6775510783912</endLongitude>
            <endStationCode>3212</endStationCode>
            <endStationName>가정중앙시장</endStationName>
            <endTime>null</endTime>
            <line>in2</line>
            <pathType>spath</pathType>
            <runTime>02:04</runTime>
            <startLatitude>37.52493544911693</startLatitude>
            <startLongitude>126.67588804865636</startLongitude>
            <startStationCode>3211</startStationCode>
            <startStationName>가정</startStationName>
            <startTime>null</startTime>
            <upDown>DOWN</upDown>
            <viewTime>23</viewTime>
            <XEndStationnumber>I212</XEndStationnumber>
            <XStartStationnumber>I211</XStartStationnumber>
        </pathList>
        <pathList>
            <endLatitude>37.50761521089508</endLatitude>
            <endLongitude>126.6764294883153</endLongitude>
            <endStationCode>3213</endStationCode>
            <endStationName>석남</endStationName>
            <endTime>null</endTime>
            <line>in2</line>
            <pathType>spath</pathType>
            <runTime>01:58</runTime>
            <startLatitude>37.51769146310838</startLatitude>
            <startLongitude>126.6775510783912</startLongitude>
            <startStationCode>3212</startStationCode>
            <startStationName>가정중앙시장</startStationName>
            <startTime>null</startTime>
            <upDown>DOWN</upDown>
            <viewTime>25</viewTime>
            <XEndStationnumber>I213</XEndStationnumber>
            <XStartStationnumber>I212</XStartStationnumber>
        </pathList>
        <pathList>
            <endLatitude>37.50028931645805</endLatitude>
            <endLongitude>126.67615576154755</endLongitude>
            <endStationCode>3214</endStationCode>
            <endStationName>서부여성회관</endStationName>
            <endTime>null</endTime>
            <line>in2</line>
            <pathType>spath</pathType>
            <runTime>01:37</runTime>
            <startLatitude>37.50761521089508</startLatitude>
            <startLongitude>126.6764294883153</startLongitude>
            <startStationCode>3213</startStationCode>
            <startStationName>석남</startStationName>
            <startTime>null</startTime>
            <upDown>DOWN</upDown>
            <viewTime>27</viewTime>
            <XEndStationnumber>I214</XEndStationnumber>
            <XStartStationnumber>I213</XStartStationnumber>
        </pathList>
        <pathList>
            <endLatitude>37.489898639428326</endLatitude>
            <endLongitude>126.67538649322861</endLongitude>
            <endStationCode>3215</endStationCode>
            <endStationName>인천가좌</endStationName>
            <endTime>null</endTime>
            <line>in2</line>
            <pathType>spath</pathType>
            <runTime>01:54</runTime>
            <startLatitude>37.50028931645805</startLatitude>
            <startLongitude>126.67615576154755</startLongitude>
            <startStationCode>3214</startStationCode>
            <startStationName>서부여성회관</startStationName>
            <startTime>null</startTime>
            <upDown>DOWN</upDown>
            <viewTime>29</viewTime>
            <XEndStationnumber>I215</XEndStationnumber>
            <XStartStationnumber>I214</XStartStationnumber>
        </pathList>
        <pathList>
            <endLatitude>37.484210057792964</endLatitude>
            <endLongitude>126.68416236523328</endLongitude>
            <endStationCode>3216</endStationCode>
            <endStationName>가재울</endStationName>
            <endTime>null</endTime>
            <line>in2</line>
            <pathType>spath</pathType>
            <runTime>02:26</runTime>
            <startLatitude>37.489898639428326</startLatitude>
            <startLongitude>126.67538649322861</startLongitude>
            <startStationCode>3215</startStationCode>
            <startStationName>인천가좌</startStationName>
            <startTime>null</startTime>
            <upDown>DOWN</upDown>
            <viewTime>31</viewTime>
            <XEndStationnumber>I216</XEndStationnumber>
            <XStartStationnumber>I215</XStartStationnumber>
        </pathList>
        <pathList>
            <endLatitude>37.47415646128201</endLatitude>
            <endLongitude>126.68141233580947</endLongitude>
            <endStationCode>3217</endStationCode>
            <endStationName>주안국가산단</endStationName>
            <endTime>null</endTime>
            <line>in2</line>
            <pathType>spath</pathType>
            <runTime>02:15</runTime>
            <startLatitude>37.484210057792964</startLatitude>
            <startLongitude>126.68416236523328</startLongitude>
            <startStationCode>3216</startStationCode>
            <startStationName>가재울</startStationName>
            <startTime>null</startTime>
            <upDown>DOWN</upDown>
            <viewTime>34</viewTime>
            <XEndStationnumber>I217</XEndStationnumber>
            <XStartStationnumber>I216</XStartStationnumber>
        </pathList>
        <pathList>
            <endLatitude>37.46525854985741</endLatitude>
            <endLongitude>126.679573685317</endLongitude>
            <endStationCode>3218</endStationCode>
            <endStationName>주안</endStationName>
            <endTime>null</endTime>
            <line>in2</line>
            <pathType>spath</pathType>
            <runTime>01:51</runTime>
            <startLatitude>37.47415646128201</startLatitude>
            <startLongitude>126.68141233580947</startLongitude>
            <startStationCode>3217</startStationCode>
            <startStationName>주안국가산단</startStationName>
            <startTime>null</startTime>
            <upDown>DOWN</upDown>
            <viewTime>35</viewTime>
            <XEndStationnumber>I218</XEndStationnumber>
            <XStartStationnumber>I217</XStartStationnumber>
        </pathList>
        <pathList>
            <endLatitude>37.45855158386621</endLatitude>
            <endLongitude>126.68162548280025</endLongitude>
            <endStationCode>3219</endStationCode>
            <endStationName>시민공원</endStationName>
            <endTime>null</endTime>
            <line>in2</line>
            <pathType>spath</pathType>
            <runTime>02:14</runTime>
            <startLatitude>37.46525854985741</startLatitude>
            <startLongitude>126.679573685317</startLongitude>
            <startStationCode>3218</startStationCode>
            <startStationName>주안</startStationName>
            <startTime>null</startTime>
            <upDown>DOWN</upDown>
            <viewTime>38</viewTime>
            <XEndStationnumber>I219</XEndStationnumber>
            <XStartStationnumber>I218</XStartStationnumber>
        </pathList>
        <pathList>
            <endLatitude>37.45793195060143</endLatitude>
            <endLongitude>126.69261421740783</endLongitude>
            <endStationCode>3220</endStationCode>
            <endStationName>석바위시장</endStationName>
            <endTime>null</endTime>
            <line>in2</line>
            <pathType>spath</pathType>
            <runTime>01:40</runTime>
            <startLatitude>37.45855158386621</startLatitude>
            <startLongitude>126.68162548280025</startLongitude>
            <startStationCode>3219</startStationCode>
            <startStationName>시민공원</startStationName>
            <startTime>null</startTime>
            <upDown>DOWN</upDown>
            <viewTime>39</viewTime>
            <XEndStationnumber>I220</XEndStationnumber>
            <XStartStationnumber>I219</XStartStationnumber>
        </pathList>
        <pathList>
            <endLatitude>37.45746952410067</endLatitude>
            <endLongitude>126.7020311036323</endLongitude>
            <endStationCode>3221</endStationCode>
            <endStationName>인천시청</endStationName>
            <endTime>null</endTime>
            <line>in2</line>
            <pathType>spath</pathType>
            <runTime>01:39</runTime>
            <startLatitude>37.45793195060143</startLatitude>
            <startLongitude>126.69261421740783</startLongitude>
            <startStationCode>3220</startStationCode>
            <startStationName>석바위시장</startStationName>
            <startTime>null</startTime>
            <upDown>DOWN</upDown>
            <viewTime>41</viewTime>
            <XEndStationnumber>I221</XEndStationnumber>
            <XStartStationnumber>I220</XStartStationnumber>
        </pathList>
        <pathList>
            <endLatitude>37.456797154348</endLatitude>
            <endLongitude>126.71064621109063</endLongitude>
            <endStationCode>3222</endStationCode>
            <endStationName>석천사거리</endStationName>
            <endTime>null</endTime>
            <line>in2</line>
            <pathType>spath</pathType>
            <runTime>01:41</runTime>
            <startLatitude>37.45746952410067</startLatitude>
            <startLongitude>126.7020311036323</startLongitude>
            <startStationCode>3221</startStationCode>
            <startStationName>인천시청</startStationName>
            <startTime>null</startTime>
            <upDown>DOWN</upDown>
            <viewTime>43</viewTime>
            <XEndStationnumber>I222</XEndStationnumber>
            <XStartStationnumber>I221</XStartStationnumber>
        </pathList>
        <pathList>
            <endLatitude>37.455873135966954</endLatitude>
            <endLongitude>126.71979331372317</endLongitude>
            <endStationCode>3223</endStationCode>
            <endStationName>모래내시장</endStationName>
            <endTime>null</endTime>
            <line>in2</line>
            <pathType>spath</pathType>
            <runTime>01:37</runTime>
            <startLatitude>37.456797154348</startLatitude>
            <startLongitude>126.71064621109063</startLongitude>
            <startStationCode>3222</startStationCode>
            <startStationName>석천사거리</startStationName>
            <startTime>null</startTime>
            <upDown>DOWN</upDown>
            <viewTime>44</viewTime>
            <XEndStationnumber>I223</XEndStationnumber>
            <XStartStationnumber>I222</XStartStationnumber>
        </pathList>
        <pathList>
            <endLatitude>37.455216505282124</endLatitude>
            <endLongitude>126.731923004341</endLongitude>
            <endStationCode>3224</endStationCode>
            <endStationName>만수</endStationName>
            <endTime>null</endTime>
            <line>in2</line>
            <pathType>spath</pathType>
            <runTime>01:43</runTime>
            <startLatitude>37.455873135966954</startLatitude>
            <startLongitude>126.71979331372317</startLongitude>
            <startStationCode>3223</startStationCode>
            <startStationName>모래내시장</startStationName>
            <startTime>null</startTime>
            <upDown>DOWN</upDown>
            <viewTime>46</viewTime>
            <XEndStationnumber>I224</XEndStationnumber>
            <XStartStationnumber>I223</XStartStationnumber>
        </pathList>
        <pathList>
            <endLatitude>37.448424446678025</endLatitude>
            <endLongitude>126.7366259237876</endLongitude>
            <endStationCode>3225</endStationCode>
            <endStationName>남동구청</endStationName>
            <endTime>null</endTime>
            <line>in2</line>
            <pathType>spath</pathType>
            <runTime>02:42</runTime>
            <startLatitude>37.455216505282124</startLatitude>
            <startLongitude>126.731923004341</startLongitude>
            <startStationCode>3224</startStationCode>
            <startStationName>만수</startStationName>
            <startTime>null</startTime>
            <upDown>DOWN</upDown>
            <viewTime>49</viewTime>
            <XEndStationnumber>I225</XEndStationnumber>
            <XStartStationnumber>I224</XStartStationnumber>
        </pathList>
        <pathList>
            <endLatitude>37.44883927558617</endLatitude>
            <endLongitude>126.75350285154984</endLongitude>
            <endStationCode>3226</endStationCode>
            <endStationName>인천대공원</endStationName>
            <endTime>null</endTime>
            <line>in2</line>
            <pathType>spath</pathType>
            <runTime>02:20</runTime>
            <startLatitude>37.448424446678025</startLatitude>
            <startLongitude>126.7366259237876</startLongitude>
            <startStationCode>3225</startStationCode>
            <startStationName>남동구청</startStationName>
            <startTime>null</startTime>
            <upDown>DOWN</upDown>
            <viewTime>51</viewTime>
            <XEndStationnumber>I226</XEndStationnumber>
            <XStartStationnumber>I225</XStartStationnumber>
        </pathList>
        <pathList>
            <endLatitude>37.439715672476844</endLatitude>
            <endLongitude>126.75965165347806</endLongitude>
            <endStationCode>3227</endStationCode>
            <endStationName>운연</endStationName>
            <endTime>003602</endTime>
            <line>in2</line>
            <pathType>spath</pathType>
            <runTime>02:42</runTime>
            <startLatitude>37.44883927558617</startLatitude>
            <startLongitude>126.75350285154984</startLongitude>
            <startStationCode>3226</startStationCode>
            <startStationName>인천대공원</startStationName>
            <startTime>null</startTime>
            <upDown>DOWN</upDown>
            <viewTime>54</viewTime>
            <XEndStationnumber>I227</XEndStationnumber>
            <XStartStationnumber>I226</XStartStationnumber>
        </pathList>
    </sPath>
    <sTransfer/>
    <lastTimeList>
        <lastTime>
            <lastTimeDay>00:12:46 (운연행)</lastTimeDay>
            <lastTimeSat>00:12:00 (운연행)</lastTimeSat>
            <lastTimeSun>00:12:00 (운연행)</lastTimeSun>
            <stationName>검단오류</stationName>
            <type>startTime</type>
        </lastTime>
        <lastTime>
            <lastTimeDay>01:00:30 (운연행)</lastTimeDay>
            <lastTimeSat>00:59:44 (운연행)</lastTimeSat>
            <lastTimeSun>00:59:44 (운연행)</lastTimeSun>
            <stationName>운연</stationName>
            <type>endTime</type>
        </lastTime>
    </lastTimeList>
<endTrain>FALSE</endTrain>
<prevTime>233540</prevTime>
<nextTime>235856</nextTime>
<firstStartTime>053001</firstStartTime>
<lastStartTime>241200</lastStartTime>

</route>