<?xml version="1.0" encoding="utf-8" standalone="yes"?>
<route>
    <sLang>k</sLang>
    <dayKind>SATURDAY</dayKind>
    <startStationCode>2611</startStationCode>
    <startStationName>응암</startStationName>
    <endStationCode>2649</endStationCode>
    <endStationName>신내</endStationName>
    <transferNum>0</transferNum>
    <totalTime>61</totalTime>
    <writeDate>20241109 15:39:41</writeDate>
    <price>1700</price>
    <price2>1800</price2>
    <div>11</div>
    <regular>61600</regular>
    <regularStep>0</regularStep>
    <distance>29.8</distance>
    <XStartStationnumber>610</XStartStationnumber>
    <XEndStationnumber>648</XEndStationnumber>
    <teensPrice>1040</teensPrice>
    <teensPrice2>1800</teensPrice2>
    <childPrice>650</childPrice>
    <childPrice2>700</childPrice2>
    <startLatitude>37.598530053198</startLatitude>
    <startLongitude>126.9155087649</startLongitude>
    <endLatitude>37.61264135095991</endLatitude>
    <endLongitude>127.10339501756304</endLongitude>
    <sPath>
        <pathList>
            <endLatitude>37.59099412864646</endLatitude>
            <endLongitude>126.91366005020573</endLongitude>
            <endStationCode>2617</endStationCode>
            <endStationName>새절</endStationName>
            <endTime>null</endTime>
            <line>6</line>
            <pathType>spath</pathType>
            <runTime>01:40</runTime>
            <startLatitude>37.598530053198</startLatitude>
            <startLongitude>126.9155087649</startLongitude>
            <startStationCode>2611</startStationCode>
            <startStationName>응암</startStationName>
            <startTime>154840</startTime>
            <upDown>DOWN</upDown>
            <viewTime>2</viewTime>
            <XEndStationnumber>616</XEndStationnumber>
            <XStartStationnumber>610</XStartStationnumber>
        </pathList>
        <pathList>
            <endLatitude>37.58375597489984</endLatitude>
            <endLongitude>126.90941148253641</endLongitude>
            <endStationCode>2618</endStationCode>
            <endStationName>증산</endStationName>
            <endTime>null</endTime>
            <line>6</line>
            <pathType>spath</pathType>
            <runTime>01:50</runTime>
            <startLatitude>37.59099412864646</startLatitude>
            <startLongitude>126.91366005020573</startLongitude>
            <startStationCode>2617</startStationCode>
            <startStationName>새절</startStationName>
            <startTime>null</startTime>
            <upDown>DOWN</upDown>
            <viewTime>4</viewTime>
            <XEndStationnumber>617</XEndStationnumber>
            <XStartStationnumber>616</XStartStationnumber>
        </pathList>
        <pathList>
            <endLatitude>37.57663026067592</endLatitude>
            <endLongitude>126.89968445374744</endLongitude>
            <endStationCode>2619</endStationCode>
            <endStationName>디지털미디어시티</endStationName>
            <endTime>null</endTime>
            <line>6</line>
            <pathType>spath</pathType>
            <runTime>02:00</runTime>
            <startLatitude>37.58375597489984</startLatitude>
            <startLongitude>126.90941148253641</startLongitude>
            <startStationCode>2618</startStationCode>
            <startStationName>증산</startStationName>
            <startTime>null</startTime>
            <upDown>DOWN</upDown>
            <viewTime>6</viewTime>
            <XEndStationnumber>618</XEndStationnumber>
            <XStartStationnumber>617</XStartStationnumber>
        </pathList>
        <pathList>
            <endLatitude>37.569382691769</endLatitude>
            <endLongitude>126.89906120935</endLongitude>
            <endStationCode>2620</endStationCode>
            <endStationName>월드컵경기장</endStationName>
            <endTime>null</endTime>
            <line>6</line>
            <pathType>spath</pathType>
            <runTime>01:50</runTime>
            <startLatitude>37.57663026067592</startLatitude>
            <startLongitude>126.89968445374744</startLongitude>
            <startStationCode>2619</startStationCode>
            <startStationName>디지털미디어시티</startStationName>
            <startTime>null</startTime>
            <upDown>DOWN</upDown>
            <viewTime>7</viewTime>
            <XEndStationnumber>619</XEndStationnumber>
            <XStartStationnumber>618</XStartStationnumber>
        </pathList>
        <pathList>
            <endLatitude>37.563506572218</endLatitude>
            <endLongitude>126.90319353288</endLongitude>
            <endStationCode>2621</endStationCode>
            <endStationName>마포구청</endStationName>
            <endTime>null</endTime>
            <line>6</line>
            <pathType>spath</pathType>
            <runTime>01:40</runTime>
            <startLatitude>37.569382691769</startLatitude>
            <startLongitude>126.89906120935</startLongitude>
            <startStationCode>2620</startStationCode>
            <startStationName>월드컵경기장</startStationName>
            <startTime>null</startTime>
            <upDown>DOWN</upDown>
            <viewTime>9</viewTime>
            <XEndStationnumber>620</XEndStationnumber>
            <XStartStationnumber>619</XStartStationnumber>
        </pathList>
        <pathList>
            <endLatitude>37.555943859991</endLatitude>
            <endLongitude>126.90981655224</endLongitude>
            <endStationCode>2622</endStationCode>
            <endStationName>망원</endStationName>
            <endTime>null</endTime>
            <line>6</line>
            <pathType>spath</pathType>
            <runTime>01:50</runTime>
            <startLatitude>37.563506572218</startLatitude>
            <startLongitude>126.90319353288</startLongitude>
            <startStationCode>2621</startStationCode>
            <startStationName>마포구청</startStationName>
            <startTime>null</startTime>
            <upDown>DOWN</upDown>
            <viewTime>11</viewTime>
            <XEndStationnumber>621</XEndStationnumber>
            <XStartStationnumber>620</XStartStationnumber>
        </pathList>
        <pathList>
            <endLatitude>37.549798878035</endLatitude>
            <endLongitude>126.91412387745</endLongitude>
            <endStationCode>2623</endStationCode>
            <endStationName>합정</endStationName>
            <endTime>null</endTime>
            <line>6</line>
            <pathType>spath</pathType>
            <runTime>02:00</runTime>
            <startLatitude>37.555943859991</startLatitude>
            <startLongitude>126.90981655224</startLongitude>
            <startStationCode>2622</startStationCode>
            <startStationName>망원</startStationName>
            <startTime>null</startTime>
            <upDown>DOWN</upDown>
            <viewTime>13</viewTime>
            <XEndStationnumber>622</XEndStationnumber>
            <XStartStationnumber>621</XStartStationnumber>
        </pathList>
        <pathList>
            <endLatitude>37.547769780517</endLatitude>
            <endLongitude>126.92258376028</endLongitude>
            <endStationCode>2624</endStationCode>
            <endStationName>상수</endStationName>
            <endTime>null</endTime>
            <line>6</line>
            <pathType>spath</pathType>
            <runTime>01:30</runTime>
            <startLatitude>37.549798878035</startLatitude>
            <startLongitude>126.91412387745</startLongitude>
            <startStationCode>2623</startStationCode>
            <startStationName>합정</startStationName>
            <startTime>null</startTime>
            <upDown>DOWN</upDown>
            <viewTime>14</viewTime>
            <XEndStationnumber>623</XEndStationnumber>
            <XStartStationnumber>622</XStartStationnumber>
        </pathList>
        <pathList>
            <endLatitude>37.547469773435</endLatitude>
            <endLongitude>126.93181765954</endLongitude>
            <endStationCode>2625</endStationCode>
            <endStationName>광흥창</endStationName>
            <endTime>null</endTime>
            <line>6</line>
            <pathType>spath</pathType>
            <runTime>01:40</runTime>
            <startLatitude>37.547769780517</startLatitude>
            <startLongitude>126.92258376028</startLongitude>
            <startStationCode>2624</startStationCode>
            <startStationName>상수</startStationName>
            <startTime>null</startTime>
            <upDown>DOWN</upDown>
            <viewTime>16</viewTime>
            <XEndStationnumber>624</XEndStationnumber>
            <XStartStationnumber>623</XStartStationnumber>
        </pathList>
        <pathList>
            <endLatitude>37.547664885931</endLatitude>
            <endLongitude>126.94222056330</endLongitude>
            <endStationCode>2626</endStationCode>
            <endStationName>대흥</endStationName>
            <endTime>null</endTime>
            <line>6</line>
            <pathType>spath</pathType>
            <runTime>02:00</runTime>
            <startLatitude>37.547469773435</startLatitude>
            <startLongitude>126.93181765954</startLongitude>
            <startStationCode>2625</startStationCode>
            <startStationName>광흥창</startStationName>
            <startTime>null</startTime>
            <upDown>DOWN</upDown>
            <viewTime>18</viewTime>
            <XEndStationnumber>625</XEndStationnumber>
            <XStartStationnumber>624</XStartStationnumber>
        </pathList>
        <pathList>
            <endLatitude>37.54354807023652</endLatitude>
            <endLongitude>126.95189765409116</endLongitude>
            <endStationCode>2627</endStationCode>
            <endStationName>공덕</endStationName>
            <endTime>null</endTime>
            <line>6</line>
            <pathType>spath</pathType>
            <runTime>02:00</runTime>
            <startLatitude>37.547664885931</startLatitude>
            <startLongitude>126.94222056330</startLongitude>
            <startStationCode>2626</startStationCode>
            <startStationName>대흥</startStationName>
            <startTime>null</startTime>
            <upDown>DOWN</upDown>
            <viewTime>20</viewTime>
            <XEndStationnumber>626</XEndStationnumber>
            <XStartStationnumber>625</XStartStationnumber>
        </pathList>
        <pathList>
            <endLatitude>37.539540</endLatitude>
            <endLongitude>126.961371</endLongitude>
            <endStationCode>2628</endStationCode>
            <endStationName>효창공원앞</endStationName>
            <endTime>null</endTime>
            <line>6</line>
            <pathType>spath</pathType>
            <runTime>01:50</runTime>
            <startLatitude>37.54354807023652</startLatitude>
            <startLongitude>126.95189765409116</startLongitude>
            <startStationCode>2627</startStationCode>
            <startStationName>공덕</startStationName>
            <startTime>null</startTime>
            <upDown>DOWN</upDown>
            <viewTime>22</viewTime>
            <XEndStationnumber>627</XEndStationnumber>
            <XStartStationnumber>626</XStartStationnumber>
        </pathList>
        <pathList>
            <endLatitude>37.53471155040242</endLatitude>
            <endLongitude>126.97337768378435</endLongitude>
            <endStationCode>2629</endStationCode>
            <endStationName>삼각지</endStationName>
            <endTime>null</endTime>
            <line>6</line>
            <pathType>spath</pathType>
            <runTime>02:00</runTime>
            <startLatitude>37.539540</startLatitude>
            <startLongitude>126.961371</startLongitude>
            <startStationCode>2628</startStationCode>
            <startStationName>효창공원앞</startStationName>
            <startTime>null</startTime>
            <upDown>DOWN</upDown>
            <viewTime>24</viewTime>
            <XEndStationnumber>628</XEndStationnumber>
            <XStartStationnumber>627</XStartStationnumber>
        </pathList>
        <pathList>
            <endLatitude>37.534642010642</endLatitude>
            <endLongitude>126.98675178778</endLongitude>
            <endStationCode>2630</endStationCode>
            <endStationName>녹사평</endStationName>
            <endTime>null</endTime>
            <line>6</line>
            <pathType>spath</pathType>
            <runTime>02:00</runTime>
            <startLatitude>37.53471155040242</startLatitude>
            <startLongitude>126.97337768378435</startLongitude>
            <startStationCode>2629</startStationCode>
            <startStationName>삼각지</startStationName>
            <startTime>null</startTime>
            <upDown>DOWN</upDown>
            <viewTime>26</viewTime>
            <XEndStationnumber>629</XEndStationnumber>
            <XStartStationnumber>628</XStartStationnumber>
        </pathList>
        <pathList>
            <endLatitude>37.534498611118</endLatitude>
            <endLongitude>126.99403804017</endLongitude>
            <endStationCode>2631</endStationCode>
            <endStationName>이태원</endStationName>
            <endTime>null</endTime>
            <line>6</line>
            <pathType>spath</pathType>
            <runTime>01:40</runTime>
            <startLatitude>37.534642010642</startLatitude>
            <startLongitude>126.98675178778</startLongitude>
            <startStationCode>2630</startStationCode>
            <startStationName>녹사평</startStationName>
            <startTime>null</startTime>
            <upDown>DOWN</upDown>
            <viewTime>28</viewTime>
            <XEndStationnumber>630</XEndStationnumber>
            <XStartStationnumber>629</XStartStationnumber>
        </pathList>
        <pathList>
            <endLatitude>37.539744452792</endLatitude>
            <endLongitude>127.00148257683</endLongitude>
            <endStationCode>2632</endStationCode>
            <endStationName>한강진</endStationName>
            <endTime>null</endTime>
            <line>6</line>
            <pathType>spath</pathType>
            <runTime>01:50</runTime>
            <startLatitude>37.534498611118</startLatitude>
            <startLongitude>126.99403804017</startLongitude>
            <startStationCode>2631</startStationCode>
            <startStationName>이태원</startStationName>
            <startTime>null</startTime>
            <upDown>DOWN</upDown>
            <viewTime>29</viewTime>
            <XEndStationnumber>631</XEndStationnumber>
            <XStartStationnumber>630</XStartStationnumber>
        </pathList>
        <pathList>
            <endLatitude>37.548069510471</endLatitude>
            <endLongitude>127.00660860398</endLongitude>
            <endStationCode>2633</endStationCode>
            <endStationName>버티고개</endStationName>
            <endTime>null</endTime>
            <line>6</line>
            <pathType>spath</pathType>
            <runTime>01:50</runTime>
            <startLatitude>37.539744452792</startLatitude>
            <startLongitude>127.00148257683</startLongitude>
            <startStationCode>2632</startStationCode>
            <startStationName>한강진</startStationName>
            <startTime>null</startTime>
            <upDown>DOWN</upDown>
            <viewTime>31</viewTime>
            <XEndStationnumber>632</XEndStationnumber>
            <XStartStationnumber>631</XStartStationnumber>
        </pathList>
        <pathList>
            <endLatitude>37.554251901271</endLatitude>
            <endLongitude>127.01046819419</endLongitude>
            <endStationCode>2634</endStationCode>
            <endStationName>약수</endStationName>
            <endTime>null</endTime>
            <line>6</line>
            <pathType>spath</pathType>
            <runTime>01:50</runTime>
            <startLatitude>37.548069510471</startLatitude>
            <startLongitude>127.00660860398</startLongitude>
            <startStationCode>2633</startStationCode>
            <startStationName>버티고개</startStationName>
            <startTime>null</startTime>
            <upDown>DOWN</upDown>
            <viewTime>33</viewTime>
            <XEndStationnumber>633</XEndStationnumber>
            <XStartStationnumber>632</XStartStationnumber>
        </pathList>
        <pathList>
            <endLatitude>37.560212569402</endLatitude>
            <endLongitude>127.01356975629</endLongitude>
            <endStationCode>2635</endStationCode>
            <endStationName>청구</endStationName>
            <endTime>null</endTime>
            <line>6</line>
            <pathType>spath</pathType>
            <runTime>01:50</runTime>
            <startLatitude>37.554251901271</startLatitude>
            <startLongitude>127.01046819419</startLongitude>
            <startStationCode>2634</startStationCode>
            <startStationName>약수</startStationName>
            <startTime>null</startTime>
            <upDown>DOWN</upDown>
            <viewTime>35</viewTime>
            <XEndStationnumber>634</XEndStationnumber>
            <XStartStationnumber>633</XStartStationnumber>
        </pathList>
        <pathList>
            <endLatitude>37.565829118376</endLatitude>
            <endLongitude>127.01810234058</endLongitude>
            <endStationCode>2636</endStationCode>
            <endStationName>신당</endStationName>
            <endTime>null</endTime>
            <line>6</line>
            <pathType>spath</pathType>
            <runTime>01:40</runTime>
            <startLatitude>37.560212569402</startLatitude>
            <startLongitude>127.01356975629</startLongitude>
            <startStationCode>2635</startStationCode>
            <startStationName>청구</startStationName>
            <startTime>null</startTime>
            <upDown>DOWN</upDown>
            <viewTime>37</viewTime>
            <XEndStationnumber>635</XEndStationnumber>
            <XStartStationnumber>634</XStartStationnumber>
        </pathList>
        <pathList>
            <endLatitude>37.572260307517</endLatitude>
            <endLongitude>127.01587318707</endLongitude>
            <endStationCode>2637</endStationCode>
            <endStationName>동묘앞</endStationName>
            <endTime>null</endTime>
            <line>6</line>
            <pathType>spath</pathType>
            <runTime>01:30</runTime>
            <startLatitude>37.565829118376</startLatitude>
            <startLongitude>127.01810234058</startLongitude>
            <startStationCode>2636</startStationCode>
            <startStationName>신당</startStationName>
            <startTime>null</startTime>
            <upDown>DOWN</upDown>
            <viewTime>38</viewTime>
            <XEndStationnumber>636</XEndStationnumber>
            <XStartStationnumber>635</XStartStationnumber>
        </pathList>
        <pathList>
            <endLatitude>37.57934561699837</endLatitude>
            <endLongitude>127.01510781061171</endLongitude>
            <endStationCode>2638</endStationCode>
            <endStationName>창신</endStationName>
            <endTime>null</endTime>
            <line>6</line>
            <pathType>spath</pathType>
            <runTime>01:40</runTime>
            <startLatitude>37.572260307517</startLatitude>
            <startLongitude>127.01587318707</startLongitude>
            <startStationCode>2637</startStationCode>
            <startStationName>동묘앞</startStationName>
            <startTime>null</startTime>
            <upDown>DOWN</upDown>
            <viewTime>40</viewTime>
            <XEndStationnumber>637</XEndStationnumber>
            <XStartStationnumber>636</XStartStationnumber>
        </pathList>
        <pathList>
            <endLatitude>37.585430347406</endLatitude>
            <endLongitude>127.01921921964</endLongitude>
            <endStationCode>2639</endStationCode>
            <endStationName>보문</endStationName>
            <endTime>null</endTime>
            <line>6</line>
            <pathType>spath</pathType>
            <runTime>01:40</runTime>
            <startLatitude>37.57934561699837</startLatitude>
            <startLongitude>127.01510781061171</startLongitude>
            <startStationCode>2638</startStationCode>
            <startStationName>창신</startStationName>
            <startTime>null</startTime>
            <upDown>DOWN</upDown>
            <viewTime>41</viewTime>
            <XEndStationnumber>638</XEndStationnumber>
            <XStartStationnumber>637</XStartStationnumber>
        </pathList>
        <pathList>
            <endLatitude>37.586230452425</endLatitude>
            <endLongitude>127.02922031578</endLongitude>
            <endStationCode>2640</endStationCode>
            <endStationName>안암</endStationName>
            <endTime>null</endTime>
            <line>6</line>
            <pathType>spath</pathType>
            <runTime>01:40</runTime>
            <startLatitude>37.585430347406</startLatitude>
            <startLongitude>127.01921921964</startLongitude>
            <startStationCode>2639</startStationCode>
            <startStationName>보문</startStationName>
            <startTime>null</startTime>
            <upDown>DOWN</upDown>
            <viewTime>43</viewTime>
            <XEndStationnumber>639</XEndStationnumber>
            <XStartStationnumber>638</XStartStationnumber>
        </pathList>
        <pathList>
            <endLatitude>37.59033908051</endLatitude>
            <endLongitude>127.03586416314</endLongitude>
            <endStationCode>2641</endStationCode>
            <endStationName>고려대</endStationName>
            <endTime>null</endTime>
            <line>6</line>
            <pathType>spath</pathType>
            <runTime>01:40</runTime>
            <startLatitude>37.586230452425</startLatitude>
            <startLongitude>127.02922031578</startLongitude>
            <startStationCode>2640</startStationCode>
            <startStationName>안암</startStationName>
            <startTime>null</startTime>
            <upDown>DOWN</upDown>
            <viewTime>45</viewTime>
            <XEndStationnumber>640</XEndStationnumber>
            <XStartStationnumber>639</XStartStationnumber>
        </pathList>
        <pathList>
            <endLatitude>37.602075297135</endLatitude>
            <endLongitude>127.04142214113</endLongitude>
            <endStationCode>2642</endStationCode>
            <endStationName>월곡</endStationName>
            <endTime>null</endTime>
            <line>6</line>
            <pathType>spath</pathType>
            <runTime>02:10</runTime>
            <startLatitude>37.59033908051</startLatitude>
            <startLongitude>127.03586416314</startLongitude>
            <startStationCode>2641</startStationCode>
            <startStationName>고려대</startStationName>
            <startTime>null</startTime>
            <upDown>DOWN</upDown>
            <viewTime>47</viewTime>
            <XEndStationnumber>641</XEndStationnumber>
            <XStartStationnumber>640</XStartStationnumber>
        </pathList>
        <pathList>
            <endLatitude>37.606322415977765</endLatitude>
            <endLongitude>127.04858866449501</endLongitude>
            <endStationCode>2643</endStationCode>
            <endStationName>상월곡</endStationName>
            <endTime>null</endTime>
            <line>6</line>
            <pathType>spath</pathType>
            <runTime>01:30</runTime>
            <startLatitude>37.602075297135</startLatitude>
            <startLongitude>127.04142214113</startLongitude>
            <startStationCode>2642</startStationCode>
            <startStationName>월곡</startStationName>
            <startTime>null</startTime>
            <upDown>DOWN</upDown>
            <viewTime>48</viewTime>
            <XEndStationnumber>642</XEndStationnumber>
            <XStartStationnumber>641</XStartStationnumber>
        </pathList>
        <pathList>
            <endLatitude>37.610527706541</endLatitude>
            <endLongitude>127.05644816033</endLongitude>
            <endStationCode>2644</endStationCode>
            <endStationName>돌곶이</endStationName>
            <endTime>null</endTime>
            <line>6</line>
            <pathType>spath</pathType>
            <runTime>01:40</runTime>
            <startLatitude>37.606322415977765</startLatitude>
            <startLongitude>127.04858866449501</startLongitude>
            <startStationCode>2643</startStationCode>
            <startStationName>상월곡</startStationName>
            <startTime>null</startTime>
            <upDown>DOWN</upDown>
            <viewTime>50</viewTime>
            <XEndStationnumber>643</XEndStationnumber>
            <XStartStationnumber>642</XStartStationnumber>
        </pathList>
        <pathList>
            <endLatitude>37.614983231835</endLatitude>
            <endLongitude>127.06556124292</endLongitude>
            <endStationCode>2645</endStationCode>
            <endStationName>석계</endStationName>
            <endTime>null</endTime>
            <line>6</line>
            <pathType>spath</pathType>
            <runTime>02:10</runTime>
            <startLatitude>37.610527706541</startLatitude>
            <startLongitude>127.05644816033</startLongitude>
            <startStationCode>2644</startStationCode>
            <startStationName>돌곶이</startStationName>
            <startTime>null</startTime>
            <upDown>DOWN</upDown>
            <viewTime>52</viewTime>
            <XEndStationnumber>644</XEndStationnumber>
            <XStartStationnumber>643</XStartStationnumber>
        </pathList>
        <pathList>
            <endLatitude>37.617965328946</endLatitude>
            <endLongitude>127.07489374497</endLongitude>
            <endStationCode>2646</endStationCode>
            <endStationName>태릉입구</endStationName>
            <endTime>null</endTime>
            <line>6</line>
            <pathType>spath</pathType>
            <runTime>01:40</runTime>
            <startLatitude>37.614983231835</startLatitude>
            <startLongitude>127.06556124292</startLongitude>
            <startStationCode>2645</startStationCode>
            <startStationName>석계</startStationName>
            <startTime>null</startTime>
            <upDown>DOWN</upDown>
            <viewTime>54</viewTime>
            <XEndStationnumber>645</XEndStationnumber>
            <XStartStationnumber>644</XStartStationnumber>
        </pathList>
        <pathList>
            <endLatitude>37.620130605590</endLatitude>
            <endLongitude>127.08442643745</endLongitude>
            <endStationCode>2647</endStationCode>
            <endStationName>화랑대</endStationName>
            <endTime>null</endTime>
            <line>6</line>
            <pathType>spath</pathType>
            <runTime>01:50</runTime>
            <startLatitude>37.617965328946</startLatitude>
            <startLongitude>127.07489374497</startLongitude>
            <startStationCode>2646</startStationCode>
            <startStationName>태릉입구</startStationName>
            <startTime>null</startTime>
            <upDown>DOWN</upDown>
            <viewTime>56</viewTime>
            <XEndStationnumber>646</XEndStationnumber>
            <XStartStationnumber>645</XStartStationnumber>
        </pathList>
        <pathList>
            <endLatitude>37.617471926377</endLatitude>
            <endLongitude>127.09108572335</endLongitude>
            <endStationCode>2648</endStationCode>
            <endStationName>봉화산</endStationName>
            <endTime>null</endTime>
            <line>6</line>
            <pathType>spath</pathType>
            <runTime>01:50</runTime>
            <startLatitude>37.620130605590</startLatitude>
            <startLongitude>127.08442643745</startLongitude>
            <startStationCode>2647</startStationCode>
            <startStationName>화랑대</startStationName>
            <startTime>null</startTime>
            <upDown>DOWN</upDown>
            <viewTime>58</viewTime>
            <XEndStationnumber>647</XEndStationnumber>
            <XStartStationnumber>646</XStartStationnumber>
        </pathList>
        <pathList>
            <endLatitude>37.61264135095991</endLatitude>
            <endLongitude>127.10339501756304</endLongitude>
            <endStationCode>2649</endStationCode>
            <endStationName>신내</endStationName>
            <endTime>165010</endTime>
            <line>6</line>
            <pathType>spath</pathType>
            <runTime>05:30</runTime>
            <startLatitude>37.617471926377</startLatitude>
            <startLongitude>127.09108572335</startLongitude>
            <startStationCode>2648</startStationCode>
            <startStationName>봉화산</startStationName>
            <startTime>null</startTime>
            <upDown>DOWN</upDown>
            <viewTime>63</viewTime>
            <XEndStationnumber>648</XEndStationnumber>
            <XStartStationnumber>647</XStartStationnumber>
        </pathList>
        <pathList>
            <endLatitude>37.618812918317</endLatitude>
            <endLongitude>126.92061581316</endLongitude>
            <endStationCode>2615</endStationCode>
            <endStationName>연신내</endStationName>
            <endTime>null</endTime>
            <line>6</line>
            <pathType>spath</pathType>
            <runTime>02:50</runTime>
            <startLatitude>37.618440705131</startLatitude>
            <startLongitude>126.93299610067</startLongitude>
            <startStationCode>2614</startStationCode>
            <startStationName>독바위</startStationName>
            <startTime>155030</startTime>
            <upDown>DOWN</upDown>
            <viewTime>3</viewTime>
            <XEndStationnumber>614</XEndStationnumber>
            <XStartStationnumber>613</XStartStationnumber>
        </pathList>
        <pathList>
            <endLatitude>37.611258522375</endLatitude>
            <endLongitude>126.91719225121</endLongitude>
            <endStationCode>2616</endStationCode>
            <endStationName>구산</endStationName>
            <endTime>null</endTime>
            <line>6</line>
            <pathType>spath</pathType>
            <runTime>01:50</runTime>
            <startLatitude>37.618812918317</startLatitude>
            <startLongitude>126.92061581316</startLongitude>
            <startStationCode>2615</startStationCode>
            <startStationName>연신내</startStationName>
            <startTime>null</startTime>
            <upDown>DOWN</upDown>
            <viewTime>5</viewTime>
            <XEndStationnumber>615</XEndStationnumber>
            <XStartStationnumber>614</XStartStationnumber>
        </pathList>
        <pathList>
            <endLatitude>37.598530053198</endLatitude>
            <endLongitude>126.9155087649</endLongitude>
            <endStationCode>2611</endStationCode>
            <endStationName>응암</endStationName>
            <endTime>155710</endTime>
            <line>6</line>
            <pathType>spath</pathType>
            <runTime>02:30</runTime>
            <startLatitude>37.611258522375</startLatitude>
            <startLongitude>126.91719225121</startLongitude>
            <startStationCode>2616</startStationCode>
            <startStationName>구산</startStationName>
            <startTime>null</startTime>
            <upDown>DOWN</upDown>
            <viewTime>7</viewTime>
            <XEndStationnumber>610</XEndStationnumber>
            <XStartStationnumber>615</XStartStationnumber>
        </pathList>
        <pathList>
            <endLatitude>37.606259848850414</endLatitude>
            <endLongitude>126.92277321128829</endLongitude>
            <endStationCode>2612</endStationCode>
            <endStationName>역촌</endStationName>
            <endTime>null</endTime>
            <line>6</line>
            <pathType>spath</pathType>
            <runTime>02:00</runTime>
            <startLatitude>37.598530053198</startLatitude>
            <startLongitude>126.9155087649</startLongitude>
            <startStationCode>2611</startStationCode>
            <startStationName>응암</startStationName>
            <startTime>154500</startTime>
            <upDown>DOWN</upDown>
            <viewTime>2</viewTime>
            <XEndStationnumber>611</XEndStationnumber>
            <XStartStationnumber>610</XStartStationnumber>
        </pathList>
        <pathList>
            <endLatitude>37.610333536135</endLatitude>
            <endLongitude>126.92982810502</endLongitude>
            <endStationCode>2613</endStationCode>
            <endStationName>불광</endStationName>
            <endTime>null</endTime>
            <line>6</line>
            <pathType>spath</pathType>
            <runTime>02:00</runTime>
            <startLatitude>37.606259848850414</startLatitude>
            <startLongitude>126.92277321128829</startLongitude>
            <startStationCode>2612</startStationCode>
            <startStationName>역촌</startStationName>
            <startTime>null</startTime>
            <upDown>DOWN</upDown>
            <viewTime>4</viewTime>
            <XEndStationnumber>612</XEndStationnumber>
            <XStartStationnumber>611</XStartStationnumber>
        </pathList>
        <pathList>
            <endLatitude>37.618440705131</endLatitude>
            <endLongitude>126.93299610067</endLongitude>
            <endStationCode>2614</endStationCode>
            <endStationName>독바위</endStationName>
            <endTime>155010</endTime>
            <line>6</line>
            <pathType>spath</pathType>
            <runTime>01:50</runTime>
            <startLatitude>37.610333536135</startLatitude>
            <startLongitude>126.92982810502</startLongitude>
            <startStationCode>2613</startStationCode>
            <startStationName>불광</startStationName>
            <startTime>null</startTime>
            <upDown>DOWN</upDown>
            <viewTime>6</viewTime>
            <XEndStationnumber>613</XEndStationnumber>
            <XStartStationnumber>612</XStartStationnumber>
        </pathList>
    </sPath>
    <sTransfer/>
    <lastTimeList>
        <lastTime>
            <lastTimeDay>23:42:50 (신내행)</lastTimeDay>
            <lastTimeSat>22:49:40 (신내행)</lastTimeSat>
            <lastTimeSun>22:49:40 (신내행)</lastTimeSun>
            <stationName>응암</stationName>
            <type>startTime</type>
        </lastTime>
        <lastTime>
            <lastTimeDay>00:45:10 (신내행)</lastTimeDay>
            <lastTimeSat>23:51:10 (신내행)</lastTimeSat>
            <lastTimeSun>23:51:10 (신내행)</lastTimeSun>
            <stationName>신내</stationName>
            <type>endTime</type>
        </lastTime>
    </lastTimeList>
<endTrain>FALSE</endTrain>
<prevTime>153840</prevTime>
<nextTime>154740</nextTime>
<firstStartTime>053700</firstStartTime>
<lastStartTime>235330</lastStartTime>

</route>